{"countries":{"MAR":{"owner":1,"troops":3,"nuked":0,"name":"Morocco","lat":28.48594851286504,"lon":-39.03487018087635,"gdp":142,"mil":16,"pop":37,"income":6,"infrastructure":3,"airwings":0,"ships":0},"LBN":{"owner":1,"troops":2,"nuked":0,"name":"Lebanon","lat":34.047276800814316,"lon":5.927850557600809,"gdp":22,"mil":8,"pop":5,"income":4,"infrastructure":3,"airwings":0,"ships":0},"MDA":{"owner":1,"troops":2,"nuked":0,"name":"Moldova","lat":47.91796146553364,"lon":-2.299442853658899,"gdp":15,"mil":4,"pop":3,"income":4,"infrastructure":3,"airwings":0,"ships":0},"NLD":{"owner":1,"troops":6,"nuked":0,"name":"Netherlands","lat":52.248513329229986,"lon":-24.34473985611416,"gdp":1000,"mil":36,"pop":17,"income":9,"infrastructure":3,"airwings":0,"ships":0},"LSO":{"owner":0,"troops":75,"nuked":0,"name":"Lesotho","lat":-29.31269707474002,"lon":-2.3402787287225557,"gdp":3,"mil":1,"pop":2,"income":2,"infrastructure":3,"airwings":0,"ships":0,"instabilityLevel":25},"MMR":{"owner":1,"troops":4,"nuked":0,"name":"Myanmar","lat":14.4870724335536,"lon":66.772348330574,"gdp":65,"mil":18,"pop":54,"income":5,"infrastructure":3,"airwings":0,"ships":0},"MAF":{"owner":1,"troops":3,"nuked":0,"name":"St-Martin","lat":18.10323461054607,"lon":-93.07883539926921,"gdp":5,"mil":2,"pop":1,"income":2,"infrastructure":3,"airwings":0,"ships":0},"PAK":{"owner":1,"troops":7,"nuked":0,"name":"Pakistan","lat":30.468819255020044,"lon":38.92471338497263,"gdp":376,"mil":44,"pop":231,"income":8,"infrastructure":3,"airwings":0,"ships":0},"NIU":{"owner":0,"troops":76,"nuked":0,"name":"Niue","lat":-18.990360132986584,"lon":160.1189724832571,"gdp":5,"mil":2,"pop":1,"income":2,"infrastructure":3,"airwings":0,"ships":0},"PRT":{"owner":1,"troops":4,"nuked":0,"name":"Portugal","lat":38.00671377353102,"lon":-37.70040815771258,"gdp":262,"mil":18,"pop":10,"income":7,"infrastructure":3,"airwings":0,"ships":0},"MEX":{"owner":1,"troops":3,"nuked":0,"name":"Mexico","lat":23.46182777170052,"lon":-136.16726661036185,"gdp":1490,"mil":35,"pop":129,"income":10,"infrastructure":3,"airwings":0,"ships":0,"instabilityLevel":25},"NAM":{"owner":1,"troops":1,"nuked":0,"name":"Namibia","lat":-19.55092477922807,"lon":-16.929509839953067,"gdp":13,"mil":2,"pop":3,"income":3,"infrastructure":3,"airwings":0,"ships":0},"MUS":{"owner":0,"troops":80,"nuked":0,"name":"Mauritius","lat":-20.308619972331634,"lon":27.540819902010327,"gdp":13,"mil":1,"pop":1.3,"income":3,"infrastructure":3,"airwings":0,"ships":0},"LUX":{"owner":1,"troops":1,"nuked":0,"name":"Luxembourg","lat":49.62652140935209,"lon":-23.632012181970453,"gdp":5,"mil":2,"pop":1,"income":2,"infrastructure":3,"airwings":0,"ships":0},"MKD":{"owner":1,"troops":3,"nuked":0,"name":"Macedonia","lat":41.7602018917284,"lon":-8.869208305739544,"gdp":14,"mil":4,"pop":2,"income":4,"infrastructure":3,"airwings":0,"ships":0},"PYF":{"owner":1,"troops":1,"nuked":0,"name":"Fr. Polynesia","lat":-15.207506042230829,"lon":-138.24940462804338,"gdp":5,"mil":2,"pop":1,"income":2,"infrastructure":3,"airwings":0,"ships":0},"ROU":{"owner":0,"troops":70,"nuked":0,"name":"Romania","lat":47.06347801929647,"lon":-4.225315078195778,"gdp":300,"mil":24,"pop":19,"income":7,"infrastructure":3,"airwings":0,"ships":0},"PRK":{"owner":1,"troops":5,"nuked":0,"name":"Dem. Rep. Korea","lat":41.77912681999347,"lon":98.3137971761101,"gdp":30,"mil":50,"pop":26,"income":4,"infrastructure":3,"airwings":0,"ships":0},"PAN":{"owner":0,"troops":44,"nuked":0,"name":"Panama","lat":8.577071761738456,"lon":-111.42479062575252,"gdp":68,"mil":5,"pop":4,"income":6,"infrastructure":3,"airwings":0,"ships":0},"HUN":{"owner":1,"troops":3,"nuked":0,"name":"Hungary","lat":47.069709419748946,"lon":-10.253266633125243,"gdp":188,"mil":16,"pop":10,"income":7,"infrastructure":3,"airwings":0,"ships":0},"CHN":{"owner":0,"troops":75,"nuked":0,"name":"China","lat":34.35980306266691,"lon":89.95966783795808,"gdp":18000,"mil":95,"pop":1412,"income":13,"infrastructure":3,"airwings":0,"ships":0,"instabilityLevel":50},"PHL":{"owner":1,"troops":5,"nuked":0,"name":"Philippines","lat":10.059631124578177,"lon":88.78903722563791,"gdp":404,"mil":28,"pop":115,"income":8,"infrastructure":3,"airwings":0,"ships":0},"MLT":{"owner":1,"troops":123,"nuked":0,"name":"Malta","lat":36.03727481292299,"lon":-15.736634401306182,"gdp":5,"mil":2,"pop":1,"income":2,"infrastructure":3,"airwings":0,"ships":0},"CMR":{"owner":1,"troops":2,"nuked":0,"name":"Cameroon","lat":6.26067926897321,"lon":-16.986126953124987,"gdp":46,"mil":5,"pop":28,"income":5,"infrastructure":3,"airwings":0,"ships":0},"LBR":{"owner":1,"troops":2,"nuked":0,"name":"Liberia","lat":7.367074193246539,"lon":-38.52198040484588,"gdp":4,"mil":1,"pop":5,"income":2,"infrastructure":3,"airwings":0,"ships":0},"MNE":{"owner":1,"troops":31,"nuked":0,"name":"Montenegro","lat":42.836446985236954,"lon":-11.182877460093447,"gdp":6,"mil":3,"pop":1,"income":3,"infrastructure":3,"airwings":0,"ships":0},"ALB":{"owner":1,"troops":3,"nuked":0,"name":"Albania","lat":40.46211090010757,"lon":-10.460082383292857,"gdp":18,"mil":5,"pop":3,"income":4,"infrastructure":3,"airwings":0,"ships":0,"instabilityLevel":100},"PNG":{"owner":1,"troops":1,"nuked":0,"name":"Papua New Guinea","lat":-7.3719577524441435,"lon":114.61795399375124,"gdp":28,"mil":3,"pop":10,"income":4,"infrastructure":3,"airwings":0,"ships":0},"CPV":{"owner":1,"troops":1,"nuked":0,"name":"Cape Verde","lat":16.05566419830779,"lon":-52.898282957741934,"gdp":2,"mil":0,"pop":0.6,"income":1,"infrastructure":3,"airwings":0,"ships":0},"MOZ":{"owner":1,"troops":2,"nuked":0,"name":"Mozambique","lat":-13.484392812459859,"lon":7.511553507156024,"gdp":18,"mil":4,"pop":33,"income":4,"infrastructure":3,"airwings":0,"ships":0},"BOL":{"owner":0,"troops":77,"nuked":0,"name":"Bolivia","lat":-12.253581768795813,"lon":-97.79087786468978,"gdp":44,"mil":6,"pop":12,"income":5,"infrastructure":3,"airwings":0,"ships":0},"MRT":{"owner":1,"troops":1,"nuked":0,"name":"Mauritania","lat":16.182191406299783,"lon":-43.01922484455586,"gdp":5,"mil":2,"pop":1,"income":2,"infrastructure":3,"airwings":0,"ships":0},"QAT":{"owner":1,"troops":3,"nuked":0,"name":"Qatar","lat":25.78449881779638,"lon":21.323456208034944,"gdp":220,"mil":24,"pop":3,"income":7,"infrastructure":3,"airwings":0,"ships":0,"instabilityLevel":50},"COM":{"owner":1,"troops":1,"nuked":0,"name":"Comoros","lat":-11.765156207432518,"lon":13.34571451962683,"gdp":5,"mil":2,"pop":1,"income":2,"infrastructure":3,"airwings":0,"ships":0},"NOR":{"owner":1,"troops":3,"nuked":0,"name":"Norway","lat":70.65029078030952,"lon":-13.210892465374133,"gdp":480,"mil":32,"pop":5,"income":8,"infrastructure":3,"airwings":0,"ships":0},"NFK":{"owner":1,"troops":1,"nuked":0,"name":"Norfolk Island","lat":-29.066150560723504,"lon":137.9642745481966,"gdp":5,"mil":2,"pop":1,"income":2,"infrastructure":3,"airwings":0,"ships":0},"SHN":{"owner":0,"troops":75,"nuked":0,"name":"Saint Helena","lat":-11.950689300933444,"lon":-40.03885767552757,"gdp":5,"mil":2,"pop":1,"income":2,"infrastructure":3,"airwings":0,"ships":0,"instabilityLevel":25},"BRA":{"owner":1,"troops":7,"nuked":0,"name":"Brazil","lat":-16.184149236701273,"lon":-82.92969236366451,"gdp":2100,"mil":50,"pop":215,"income":10,"infrastructure":3,"airwings":0,"ships":0},"AUS":{"owner":0,"troops":81,"nuked":0,"name":"Australia","lat":-24.827279016990467,"lon":111.2748364494599,"gdp":1700,"mil":44,"pop":26,"income":10,"infrastructure":3,"airwings":0,"ships":0,"instabilityLevel":50},"MNP":{"owner":1,"troops":1,"nuked":0,"name":"N. Mariana Is.","lat":18.770778221675315,"lon":115.66442412597318,"gdp":5,"mil":2,"pop":1,"income":2,"infrastructure":3,"airwings":0,"ships":0},"PRI":{"owner":1,"troops":3,"nuked":0,"name":"Puerto Rico","lat":18.12748088303205,"lon":-96.97532559874661,"gdp":5,"mil":2,"pop":1,"income":2,"infrastructure":3,"airwings":0,"ships":0,"instabilityLevel":25},"BLZ":{"owner":1,"troops":1,"nuked":0,"name":"Belize","lat":17.407932830379497,"lon":-118.77468967415895,"gdp":2,"mil":1,"pop":0.4,"income":1,"infrastructure":3,"airwings":0,"ships":0},"USA":{"owner":0,"troops":73,"nuked":0,"name":"United States","lat":70.43276116177307,"lon":84.8918847162632,"gdp":26000,"mil":100,"pop":334,"income":13,"infrastructure":3,"airwings":0,"ships":0,"instabilityLevel":100},"PSX":{"owner":1,"troops":3,"nuked":0,"name":"Palestine","lat":32.22556923438676,"lon":5.33055086792862,"gdp":5,"mil":2,"pop":1,"income":2,"infrastructure":3,"airwings":0,"ships":0},"MDV":{"owner":1,"troops":3,"nuked":0,"name":"Maldives","lat":4.174237723709688,"lon":43.49725053977951,"gdp":7,"mil":0,"pop":0.5,"income":3,"infrastructure":3,"airwings":0,"ships":0},"GNB":{"owner":1,"troops":1,"nuked":0,"name":"Guinea-Bissau","lat":11.803815785002818,"lon":-44.708824791321895,"gdp":2,"mil":1,"pop":2,"income":1,"infrastructure":3,"airwings":0,"ships":0},"SPM":{"owner":1,"troops":3,"nuked":0,"name":"St. Pierre and Miquelon","lat":46.95407363367255,"lon":-86.33042240768344,"gdp":5,"mil":2,"pop":1,"income":2,"infrastructure":3,"airwings":0,"ships":0,"instabilityLevel":25},"SWE":{"owner":1,"troops":226,"nuked":0,"name":"Sweden","lat":58.90118752045294,"lon":-11.831917794215599,"gdp":590,"mil":34,"pop":10,"income":8,"infrastructure":3,"airwings":0,"ships":0},"PLW":{"owner":0,"troops":81,"nuked":0,"name":"Palau","lat":5.279351806640629,"lon":102.87523871527782,"gdp":5,"mil":2,"pop":1,"income":2,"infrastructure":3,"airwings":0,"ships":0},"STP":{"owner":0,"troops":66,"nuked":0,"name":"São Tomé and Principe","lat":0.14370872846282737,"lon":-23.411945499891818,"gdp":5,"mil":2,"pop":1,"income":2,"infrastructure":3,"airwings":0,"ships":0},"ATF":{"owner":0,"troops":58,"nuked":0,"name":"Fr. S. Antarctic Lands","lat":-49.531473880472596,"lon":38.847584965243826,"gdp":5,"mil":2,"pop":1,"income":2,"infrastructure":3,"airwings":0,"ships":0,"instabilityLevel":25},"COK":{"owner":1,"troops":1,"nuked":0,"name":"Cook Is.","lat":-21.22993238447196,"lon":170.16762351446062,"gdp":5,"mil":2,"pop":1,"income":2,"infrastructure":3,"airwings":0,"ships":0},"KNA":{"owner":1,"troops":3,"nuked":0,"name":"St. Kitts and Nevis","lat":17.385613821771603,"lon":-92.77054880973496,"gdp":5,"mil":2,"pop":1,"income":2,"infrastructure":3,"airwings":0,"ships":0,"instabilityLevel":25},"JAM":{"owner":1,"troops":3,"nuked":0,"name":"Jamaica","lat":17.964578767518706,"lon":-106.28842061353579,"gdp":16,"mil":2,"pop":3,"income":4,"infrastructure":3,"airwings":0,"ships":0},"SYC":{"owner":0,"troops":81,"nuked":0,"name":"Seychelles","lat":-4.63000989397184,"lon":25.46902380931399,"gdp":2,"mil":0,"pop":0.1,"income":1,"infrastructure":3,"airwings":0,"ships":0,"instabilityLevel":25},"AIA":{"owner":1,"troops":3,"nuked":0,"name":"Anguilla","lat":18.21744664091385,"lon":-93.0318206266144,"gdp":5,"mil":2,"pop":1,"income":2,"infrastructure":3,"airwings":0,"ships":0},"NRU":{"owner":0,"troops":85,"nuked":0,"name":"Nauru","lat":-0.5035247382340886,"lon":136.93134591423083,"gdp":5,"mil":2,"pop":1,"income":2,"infrastructure":3,"airwings":0,"ships":0,"instabilityLevel":25},"HMD":{"owner":1,"troops":1,"nuked":0,"name":"Heard I. and McDonald Is.","lat":-53.142556536301186,"lon":43.691419140629726,"gdp":5,"mil":2,"pop":1,"income":2,"infrastructure":3,"airwings":0,"ships":0},"FRO":{"owner":1,"troops":1,"nuked":0,"name":"Faeroe Is.","lat":62.14470230486961,"lon":-36.74368983797879,"gdp":5,"mil":2,"pop":1,"income":2,"infrastructure":3,"airwings":0,"ships":0},"IMN":{"owner":1,"troops":1,"nuked":0,"name":"Isle of Man","lat":54.26255865902271,"lon":-34.44937779972965,"gdp":5,"mil":2,"pop":1,"income":2,"infrastructure":3,"airwings":0,"ships":0},"BWA":{"owner":0,"troops":72,"nuked":0,"name":"Botswana","lat":-24.107512566985992,"lon":-7.341258516871175,"gdp":20,"mil":2,"pop":3,"income":4,"infrastructure":3,"airwings":0,"ships":0},"SYR":{"owner":1,"troops":4,"nuked":0,"name":"Syria","lat":35.30319472521079,"lon":9.46418140047647,"gdp":22,"mil":18,"pop":21,"income":4,"infrastructure":3,"airwings":0,"ships":0},"TTO":{"owner":1,"troops":3,"nuked":0,"name":"Trinidad and Tobago","lat":10.364938879607656,"lon":-91.351200098202,"gdp":22,"mil":4,"pop":1.4,"income":4,"infrastructure":3,"airwings":0,"ships":0},"HRV":{"owner":1,"troops":226,"nuked":0,"name":"Croatia","lat":45.0835846940261,"lon":-14.577249187033654,"gdp":80,"mil":10,"pop":4,"income":6,"infrastructure":3,"airwings":0,"ships":0},"LAO":{"owner":0,"troops":66,"nuked":0,"name":"Lao PDR","lat":19.111498175162396,"lon":73.35770739639283,"gdp":14,"mil":4,"pop":7,"income":4,"infrastructure":3,"airwings":0,"ships":0,"instabilityLevel":25},"GAB":{"owner":1,"troops":1,"nuked":0,"name":"Gabon","lat":-0.6231099537620328,"lon":-18.097322919881407,"gdp":19,"mil":3,"pop":2,"income":4,"infrastructure":3,"airwings":0,"ships":0},"CYM":{"owner":1,"troops":3,"nuked":0,"name":"Cayman Is.","lat":19.29884167153017,"lon":-111.33771396296491,"gdp":5,"mil":2,"pop":1,"income":2,"infrastructure":3,"airwings":0,"ships":0,"instabilityLevel":25},"TJK":{"owner":1,"troops":2,"nuked":0,"name":"Tajikistan","lat":38.90882277989515,"lon":39.77279290105722,"gdp":11,"mil":4,"pop":10,"income":3,"infrastructure":3,"airwings":0,"ships":0},"ARG":{"owner":0,"troops":76,"nuked":0,"name":"Argentina","lat":-51.87517248771492,"lon":-101.04507305474716,"gdp":630,"mil":32,"pop":46,"income":8,"infrastructure":3,"airwings":0,"ships":0},"CRI":{"owner":1,"troops":3,"nuked":0,"name":"Costa Rica","lat":9.536360504341628,"lon":-113.32169357602052,"gdp":65,"mil":0,"pop":5,"income":5,"infrastructure":3,"airwings":0,"ships":0},"JPN":{"owner":0,"troops":82,"nuked":0,"name":"Japan","lat":36.840822225577604,"lon":109.11758842979523,"gdp":4300,"mil":55,"pop":125,"income":11,"infrastructure":3,"airwings":0,"ships":0,"instabilityLevel":100},"ARM":{"owner":1,"troops":3,"nuked":0,"name":"Armenia","lat":40.05798528804347,"lon":14.149629927253546,"gdp":20,"mil":12,"pop":3,"income":4,"infrastructure":3,"airwings":0,"ships":0},"TKM":{"owner":1,"troops":3,"nuked":0,"name":"Turkmenistan","lat":39.65211493210032,"lon":29.980680216858012,"gdp":40,"mil":6,"pop":6,"income":5,"infrastructure":3,"airwings":0,"ships":0},"CZE":{"owner":1,"troops":228,"nuked":0,"name":"Czech Rep.","lat":50.56727616370788,"lon":-16.37232972967906,"gdp":330,"mil":18,"pop":11,"income":8,"infrastructure":3,"airwings":0,"ships":0},"ARE":{"owner":0,"troops":83,"nuked":0,"name":"United Arab Emirates","lat":23.615356900160986,"lon":22.594070978314257,"gdp":500,"mil":40,"pop":10,"income":8,"infrastructure":3,"airwings":0,"ships":0},"SUR":{"owner":1,"troops":3,"nuked":0,"name":"Suriname","lat":3.725439187754748,"lon":-86.07116115404212,"gdp":5,"mil":2,"pop":1,"income":2,"infrastructure":3,"airwings":0,"ships":0},"JEY":{"owner":1,"troops":3,"nuked":0,"name":"Jersey","lat":49.189494199696334,"lon":-32.10118886561113,"gdp":5,"mil":2,"pop":1,"income":2,"infrastructure":3,"airwings":0,"ships":0},"ZWE":{"owner":1,"troops":1,"nuked":0,"name":"Zimbabwe","lat":-17.69561266808825,"lon":-0.5518787248864658,"gdp":5,"mil":2,"pop":1,"income":2,"infrastructure":3,"airwings":0,"ships":0},"SAH":{"owner":1,"troops":3,"nuked":0,"name":"W. Sahara","lat":24.429263825395697,"lon":-42.375166931973226,"gdp":5,"mil":2,"pop":1,"income":2,"infrastructure":3,"airwings":0,"ships":0},"ISR":{"owner":1,"troops":8,"nuked":0,"name":"Israel","lat":30.38167467499287,"lon":5.053104289553127,"gdp":520,"mil":56,"pop":9,"income":8,"infrastructure":3,"airwings":0,"ships":0},"BTN":{"owner":1,"troops":3,"nuked":0,"name":"Bhutan","lat":27.320090770766274,"lon":61.646417167454715,"gdp":3,"mil":1,"pop":0.8,"income":2,"infrastructure":3,"airwings":0,"ships":0},"GRC":{"owner":1,"troops":4,"nuked":0,"name":"Greece","lat":38.165791693576224,"lon":-8.593258955859506,"gdp":240,"mil":20,"pop":11,"income":7,"infrastructure":3,"airwings":0,"ships":0},"EGY":{"owner":0,"troops":75,"nuked":0,"name":"Egypt","lat":24.77807929499162,"lon":1.1285226242775783,"gdp":476,"mil":38,"pop":105,"income":8,"infrastructure":3,"airwings":0,"ships":0,"instabilityLevel":25},"MAC":{"owner":0,"troops":76,"nuked":0,"name":"Macao","lat":22.227070963793082,"lon":83.52424486959217,"gdp":5,"mil":2,"pop":1,"income":2,"infrastructure":3,"airwings":0,"ships":0,"instabilityLevel":25},"TLS":{"owner":0,"troops":71,"nuked":0,"name":"Timor-Leste","lat":-8.723153809388162,"lon":95.18729088517411,"gdp":3,"mil":1,"pop":1.3,"income":2,"infrastructure":3,"airwings":0,"ships":0},"LIE":{"owner":1,"troops":1,"nuked":0,"name":"Liechtenstein","lat":47.1577423933996,"lon":-20.48154507326346,"gdp":5,"mil":2,"pop":1,"income":2,"infrastructure":3,"airwings":0,"ships":0},"ECU":{"owner":0,"troops":87,"nuked":0,"name":"Ecuador","lat":-2.5268631625790885,"lon":-109.23574894493677,"gdp":113,"mil":10,"pop":18,"income":6,"infrastructure":3,"airwings":0,"ships":0},"GRL":{"owner":1,"troops":1,"nuked":0,"name":"Greenland","lat":70.3231595716498,"lon":-62.69539803893475,"gdp":5,"mil":2,"pop":1,"income":2,"infrastructure":3,"airwings":0,"ships":0},"BHR":{"owner":1,"troops":3,"nuked":0,"name":"Bahrain","lat":25.890194226903734,"lon":20.591214042731906,"gdp":44,"mil":12,"pop":1.5,"income":5,"infrastructure":3,"airwings":0,"ships":0},"AGO":{"owner":1,"troops":1,"nuked":0,"name":"Angola","lat":-9.065077098272141,"lon":-11.537868660075603,"gdp":5,"mil":2,"pop":1,"income":2,"infrastructure":3,"airwings":0,"ships":0},"NCL":{"owner":0,"troops":79,"nuked":0,"name":"New Caledonia","lat":-21.7071679862241,"lon":135.75721194437187,"gdp":5,"mil":2,"pop":1,"income":2,"infrastructure":3,"airwings":0,"ships":0},"NGA":{"owner":1,"troops":5,"nuked":0,"name":"Nigeria","lat":12.81881978307939,"lon":-23.161490034908585,"gdp":477,"mil":30,"pop":223,"income":8,"infrastructure":3,"airwings":0,"ships":0},"GNQ":{"owner":1,"troops":3,"nuked":0,"name":"Eq. Guinea","lat":2.489408893991028,"lon":-20.579645684424833,"gdp":12,"mil":2,"pop":1.5,"income":3,"infrastructure":3,"airwings":0,"ships":0},"SOL":{"owner":1,"troops":1,"nuked":0,"name":"Somaliland","lat":10.07702631935932,"lon":14.709266784603724,"gdp":5,"mil":2,"pop":1,"income":2,"infrastructure":3,"airwings":0,"ships":0},"NZL":{"owner":0,"troops":74,"nuked":0,"name":"New Zealand","lat":-41.379882433579446,"lon":142.237769444581,"gdp":250,"mil":10,"pop":5,"income":7,"infrastructure":3,"airwings":0,"ships":0,"instabilityLevel":25},"BLR":{"owner":1,"troops":4,"nuked":0,"name":"Belarus","lat":54.26844794403269,"lon":-2.9083104912713424,"gdp":73,"mil":22,"pop":10,"income":6,"infrastructure":3,"airwings":0,"ships":0},"GUY":{"owner":0,"troops":80,"nuked":0,"name":"Guyana","lat":5.909797028568661,"lon":-88.3060163432519,"gdp":20,"mil":2,"pop":0.8,"income":4,"infrastructure":3,"airwings":0,"ships":0},"JOR":{"owner":1,"troops":3,"nuked":0,"name":"Jordan","lat":31.872158941161356,"lon":7.212330719059738,"gdp":47,"mil":16,"pop":10,"income":5,"infrastructure":3,"airwings":0,"ships":0},"NPL":{"owner":0,"troops":78,"nuked":0,"name":"Nepal","lat":29.037958708380962,"lon":52.31973998688327,"gdp":40,"mil":6,"pop":30,"income":5,"infrastructure":3,"airwings":0,"ships":0},"WSM":{"owner":1,"troops":1,"nuked":0,"name":"Samoa","lat":-13.522409891360283,"lon":157.69689639667308,"gdp":1,"mil":0,"pop":0.2,"income":1,"infrastructure":3,"airwings":0,"ships":0},"MCO":{"owner":1,"troops":3,"nuked":0,"name":"Monaco","lat":43.76743969108612,"lon":-22.595316091708195,"gdp":5,"mil":2,"pop":1,"income":2,"infrastructure":3,"airwings":0,"ships":0},"MSR":{"owner":1,"troops":1,"nuked":0,"name":"Montserrat","lat":16.740820883286663,"lon":-92.18192957753301,"gdp":5,"mil":2,"pop":1,"income":2,"infrastructure":3,"airwings":0,"ships":0},"CIV":{"owner":1,"troops":1,"nuked":0,"name":"Côte d'Ivoire","lat":6.827135663153895,"lon":-36.239609246440736,"gdp":68,"mil":5,"pop":27,"income":6,"infrastructure":3,"airwings":0,"ships":0},"CAF":{"owner":1,"troops":1,"nuked":0,"name":"Central African Rep.","lat":7.878069182742063,"lon":-12.477656077920027,"gdp":2,"mil":2,"pop":5,"income":1,"infrastructure":3,"airwings":0,"ships":0},"NER":{"owner":1,"troops":3,"nuked":0,"name":"Niger","lat":20.533643220394794,"lon":-22.323081772046315,"gdp":17,"mil":3,"pop":26,"income":4,"infrastructure":3,"airwings":0,"ships":0},"ERI":{"owner":1,"troops":2,"nuked":0,"name":"Eritrea","lat":14.80884124990083,"lon":8.253667940000206,"gdp":2,"mil":8,"pop":3,"income":1,"infrastructure":3,"airwings":0,"ships":0},"BDI":{"owner":1,"troops":3,"nuked":0,"name":"Burundi","lat":-2.544611624243853,"lon":0.09961108738547675,"gdp":3,"mil":2,"pop":12,"income":2,"infrastructure":3,"airwings":0,"ships":0},"SXM":{"owner":1,"troops":1,"nuked":0,"name":"Sint Maarten","lat":18.056937178141272,"lon":-93.06971194905992,"gdp":5,"mil":2,"pop":1,"income":2,"infrastructure":3,"airwings":0,"ships":0},"ITA":{"owner":0,"troops":75,"nuked":0,"name":"Italy","lat":45.532521527898204,"lon":-20.298043107469596,"gdp":2190,"mil":45,"pop":60,"income":10,"infrastructure":3,"airwings":0,"ships":0,"instabilityLevel":25},"MNG":{"owner":1,"troops":2,"nuked":0,"name":"Mongolia","lat":47.671974170617574,"lon":72.04618306222815,"gdp":17,"mil":4,"pop":3,"income":4,"infrastructure":3,"airwings":0,"ships":0},"LKA":{"owner":0,"troops":66,"nuked":0,"name":"Sri Lanka","lat":8.466802746980589,"lon":50.647649181493655,"gdp":84,"mil":10,"pop":22,"income":6,"infrastructure":3,"airwings":0,"ships":0,"instabilityLevel":50},"AFG":{"owner":1,"troops":3,"nuked":0,"name":"Afghanistan","lat":33.29107300264695,"lon":34.86578755293176,"gdp":14,"mil":12,"pop":40,"income":4,"infrastructure":3,"airwings":0,"ships":0},"MYS":{"owner":0,"troops":73,"nuked":0,"name":"Malaysia","lat":4.822433445989907,"lon":72.69356131402704,"gdp":430,"mil":26,"pop":33,"income":8,"infrastructure":3,"airwings":0,"ships":0,"instabilityLevel":25},"LVA":{"owner":1,"troops":2,"nuked":0,"name":"Latvia","lat":56.63461716264173,"lon":-7.794222370191966,"gdp":43,"mil":10,"pop":2,"income":5,"infrastructure":3,"airwings":0,"ships":0},"PCN":{"owner":0,"troops":74,"nuked":0,"name":"Pitcairn Is.","lat":-24.36177602857217,"lon":-158.31255076572674,"gdp":5,"mil":2,"pop":1,"income":2,"infrastructure":3,"airwings":0,"ships":0},"CAN":{"owner":1,"troops":7,"nuked":0,"name":"Canada","lat":57.267790561807004,"lon":-144.09390362901317,"gdp":2100,"mil":45,"pop":38,"income":10,"infrastructure":3,"airwings":0,"ships":0},"PER":{"owner":1,"troops":3,"nuked":0,"name":"Peru","lat":-6.259658235272758,"lon":-103.51797633525672,"gdp":240,"mil":18,"pop":33,"income":7,"infrastructure":3,"airwings":0,"ships":0},"KWT":{"owner":1,"troops":4,"nuked":0,"name":"Kuwait","lat":29.43392150556246,"lon":17.18522358186683,"gdp":145,"mil":20,"pop":4,"income":6,"infrastructure":3,"airwings":0,"ships":0},"VGB":{"owner":0,"troops":71,"nuked":0,"name":"British Virgin Is.","lat":18.48261867500875,"lon":-94.37621814120067,"gdp":5,"mil":2,"pop":1,"income":2,"infrastructure":3,"airwings":0,"ships":0,"instabilityLevel":25},"PRY":{"owner":1,"troops":2,"nuked":0,"name":"Paraguay","lat":-21.599329216360843,"lon":-91.71467112379025,"gdp":42,"mil":4,"pop":7,"income":5,"infrastructure":3,"airwings":0,"ships":0},"KGZ":{"owner":0,"troops":66,"nuked":0,"name":"Kyrgyzstan","lat":40.720229333778065,"lon":46.21947292334512,"gdp":12,"mil":4,"pop":7,"income":3,"infrastructure":3,"airwings":0,"ships":0,"instabilityLevel":50},"TZA":{"owner":1,"troops":2,"nuked":0,"name":"Tanzania","lat":-7.693496531808481,"lon":5.257103340959977,"gdp":77,"mil":8,"pop":64,"income":6,"infrastructure":3,"airwings":0,"ships":0},"UGA":{"owner":1,"troops":3,"nuked":0,"name":"Uganda","lat":3.37764838401838,"lon":3.780570072656265,"gdp":48,"mil":6,"pop":48,"income":5,"infrastructure":3,"airwings":0,"ships":0},"DZA":{"owner":1,"troops":1,"nuked":0,"name":"Algeria","lat":22.57465662695865,"lon":-29.623453458250953,"gdp":5,"mil":2,"pop":1,"income":2,"infrastructure":3,"airwings":0,"ships":0},"SGP":{"owner":0,"troops":62,"nuked":0,"name":"Singapore","lat":1.3664171006944401,"lon":73.86655815972225,"gdp":470,"mil":30,"pop":6,"income":8,"infrastructure":3,"airwings":0,"ships":0,"instabilityLevel":25},"IRN":{"owner":1,"troops":7,"nuked":0,"name":"Iran","lat":35.05479277663995,"lon":16.505676716698993,"gdp":367,"mil":42,"pop":87,"income":8,"infrastructure":3,"airwings":0,"ships":0},"ALD":{"owner":1,"troops":1,"nuked":0,"name":"Aland","lat":60.163799743652355,"lon":-9.976295572916635,"gdp":5,"mil":2,"pop":1,"income":2,"infrastructure":3,"airwings":0,"ships":0},"VEN":{"owner":1,"troops":968,"nuked":0,"name":"Venezuela","lat":5.8283167936313545,"lon":-97.43698725138174,"gdp":105,"mil":14,"pop":29,"income":6,"infrastructure":3,"airwings":0,"ships":0},"DMA":{"owner":0,"troops":75,"nuked":0,"name":"Dominica","lat":15.32262751947921,"lon":-91.37486142176068,"gdp":5,"mil":2,"pop":1,"income":2,"infrastructure":3,"airwings":0,"ships":0,"instabilityLevel":25},"ISL":{"owner":1,"troops":1,"nuked":0,"name":"Iceland","lat":65.00771926060261,"lon":-48.512732574975715,"gdp":5,"mil":2,"pop":1,"income":2,"infrastructure":3,"airwings":0,"ships":0},"GBR":{"owner":1,"troops":3,"nuked":0,"name":"United Kingdom","lat":51.71152349750216,"lon":-29.832484418277048,"gdp":3100,"mil":65,"pop":67,"income":10,"infrastructure":3,"airwings":0,"ships":0,"instabilityLevel":100},"ETH":{"owner":1,"troops":3,"nuked":0,"name":"Ethiopia","lat":9.19420431136175,"lon":8.945902641245867,"gdp":156,"mil":14,"pop":126,"income":7,"infrastructure":3,"airwings":0,"ships":0},"SAU":{"owner":1,"troops":2,"nuked":0,"name":"Saudi Arabia","lat":23.9160190661674,"lon":14.617496776323863,"gdp":1100,"mil":48,"pop":36,"income":9,"infrastructure":3,"airwings":0,"ships":0},"GUM":{"owner":1,"troops":1,"nuked":0,"name":"Guam","lat":13.429471842447915,"lon":114.77316894531252,"gdp":5,"mil":2,"pop":1,"income":2,"infrastructure":3,"airwings":0,"ships":0},"MDG":{"owner":0,"troops":73,"nuked":0,"name":"Madagascar","lat":-16.812891313958595,"lon":17.373045013488014,"gdp":14,"mil":2,"pop":28,"income":4,"infrastructure":3,"airwings":0,"ships":0},"CHL":{"owner":1,"troops":4,"nuked":0,"name":"Chile","lat":-38.672959156212656,"lon":-101.04875397085212,"gdp":360,"mil":24,"pop":19,"income":8,"infrastructure":3,"airwings":0,"ships":0},"VNM":{"owner":0,"troops":83,"nuked":0,"name":"Vietnam","lat":22.162495663760254,"lon":75.55869798795811,"gdp":406,"mil":30,"pop":98,"income":8,"infrastructure":3,"airwings":0,"ships":0},"KOR":{"owner":1,"troops":6,"nuked":0,"name":"Korea","lat":36.63160688186067,"lon":97.08297368093166,"gdp":1700,"mil":58,"pop":52,"income":10,"infrastructure":3,"airwings":0,"ships":0},"LTU":{"owner":0,"troops":68,"nuked":0,"name":"Lithuania","lat":55.79232294180498,"lon":-7.255751625590767,"gdp":74,"mil":12,"pop":3,"income":6,"infrastructure":3,"airwings":0,"ships":0,"instabilityLevel":25},"ATA":{"owner":1,"troops":1,"nuked":0,"name":"Antarctica","lat":-75.9378777756215,"lon":122.92221391411266,"gdp":5,"mil":2,"pop":1,"income":2,"infrastructure":3,"airwings":0,"ships":0},"GTM":{"owner":0,"troops":75,"nuked":0,"name":"Guatemala","lat":16.57208827797298,"lon":-120.11054087159074,"gdp":85,"mil":6,"pop":18,"income":6,"infrastructure":3,"airwings":0,"ships":0,"instabilityLevel":25},"GEO":{"owner":1,"troops":2,"nuked":0,"name":"Georgia","lat":41.85574065684699,"lon":14.677592670814885,"gdp":24,"mil":8,"pop":4,"income":4,"infrastructure":3,"airwings":0,"ships":0},"VCT":{"owner":0,"troops":63,"nuked":0,"name":"St. Vin. and Gren.","lat":13.165628116253226,"lon":-91.18485819955629,"gdp":5,"mil":2,"pop":1,"income":2,"infrastructure":3,"airwings":0,"ships":0,"instabilityLevel":25},"KIR":{"owner":1,"troops":1,"nuked":0,"name":"Kiribati","lat":-1.346181538552072,"lon":155.07907596164299,"gdp":5,"mil":2,"pop":1,"income":2,"infrastructure":3,"airwings":0,"ships":0},"FLK":{"owner":0,"troops":78,"nuked":0,"name":"Falkland Is.","lat":-52.080936196862645,"lon":-90.36452470830085,"gdp":5,"mil":2,"pop":1,"income":2,"infrastructure":3,"airwings":0,"ships":0},"IDN":{"owner":1,"troops":7,"nuked":0,"name":"Indonesia","lat":-2.863895414994584,"lon":110.64332947521791,"gdp":1390,"mil":42,"pop":277,"income":9,"infrastructure":3,"airwings":0,"ships":0},"BEN":{"owner":1,"troops":3,"nuked":0,"name":"Benin","lat":7.983572048436199,"lon":-27.823410923189034,"gdp":18,"mil":2,"pop":13,"income":4,"infrastructure":3,"airwings":0,"ships":0},"SGS":{"owner":1,"troops":1,"nuked":0,"name":"S. Geo. and S. Sandw. Is.","lat":-54.52965466737785,"lon":-66.37677071198061,"gdp":5,"mil":2,"pop":1,"income":2,"infrastructure":3,"airwings":0,"ships":0},"KHM":{"owner":0,"troops":76,"nuked":0,"name":"Cambodia","lat":11.586640530724159,"lon":73.85017031901045,"gdp":26,"mil":6,"pop":17,"income":4,"infrastructure":3,"airwings":0,"ships":0,"instabilityLevel":25},"BLM":{"owner":1,"troops":1,"nuked":0,"name":"St-Barthélemy","lat":17.88871746806546,"lon":-92.83488803335499,"gdp":5,"mil":2,"pop":1,"income":2,"infrastructure":3,"airwings":0,"ships":0},"POL":{"owner":0,"troops":68,"nuked":0,"name":"Poland","lat":54.02002203846828,"lon":-11.525105193690141,"gdp":750,"mil":38,"pop":38,"income":9,"infrastructure":3,"airwings":0,"ships":0,"instabilityLevel":50},"ABW":{"owner":1,"troops":7345,"nuked":0,"name":"Aruba","lat":12.560412540427945,"lon":-100.04384498246607,"gdp":5,"mil":2,"pop":1,"income":2,"infrastructure":3,"airwings":0,"ships":0},"SVK":{"owner":0,"troops":81,"nuked":0,"name":"Slovakia","lat":48.51647122064211,"lon":-11.150469818194116,"gdp":120,"mil":12,"pop":5,"income":6,"infrastructure":3,"airwings":0,"ships":0,"instabilityLevel":25},"URY":{"owner":1,"troops":2,"nuked":0,"name":"Uruguay","lat":-32.6131236800409,"lon":-83.75538676670811,"gdp":70,"mil":6,"pop":4,"income":6,"infrastructure":3,"airwings":0,"ships":0},"BMU":{"owner":0,"troops":75,"nuked":0,"name":"Bermuda","lat":32.357160535784665,"lon":-94.71096291797316,"gdp":5,"mil":2,"pop":1,"income":2,"infrastructure":3,"airwings":0,"ships":0},"CYP":{"owner":1,"troops":1,"nuked":0,"name":"Cyprus","lat":34.87812464576874,"lon":2.944040307531008,"gdp":5,"mil":2,"pop":1,"income":2,"infrastructure":3,"airwings":0,"ships":0},"TUR":{"owner":1,"troops":3,"nuked":0,"name":"Turkey","lat":40.025100555831834,"lon":-0.4569993938000727,"gdp":1150,"mil":52,"pop":85,"income":9,"infrastructure":3,"airwings":0,"ships":0,"instabilityLevel":50},"LBY":{"owner":1,"troops":3,"nuked":0,"name":"Libya","lat":32.67820806887004,"lon":-17.58327410640409,"gdp":52,"mil":12,"pop":7,"income":5,"infrastructure":3,"airwings":0,"ships":0},"SRB":{"owner":1,"troops":3,"nuked":0,"name":"Serbia","lat":42.497798404894404,"lon":-8.074846289023368,"gdp":66,"mil":12,"pop":7,"income":5,"infrastructure":3,"airwings":0,"ships":0,"instabilityLevel":25},"CYN":{"owner":1,"troops":1,"nuked":0,"name":"N. Cyprus","lat":35.22543846911445,"lon":3.0466628564078846,"gdp":5,"mil":2,"pop":1,"income":2,"infrastructure":3,"airwings":0,"ships":0},"RWA":{"owner":0,"troops":76,"nuked":0,"name":"Rwanda","lat":-2.0019672439759093,"lon":-0.07645307793673733,"gdp":13,"mil":4,"pop":14,"income":3,"infrastructure":3,"airwings":0,"ships":0},"DOM":{"owner":1,"troops":1,"nuked":0,"name":"Dominican Rep.","lat":19.25624980100032,"lon":-100.38883809308172,"gdp":5,"mil":2,"pop":1,"income":2,"infrastructure":3,"airwings":0,"ships":0},"BGR":{"owner":1,"troops":3,"nuked":0,"name":"Bulgaria","lat":43.311626406227575,"lon":-7.065450242144013,"gdp":5,"mil":2,"pop":1,"income":2,"infrastructure":3,"airwings":0,"ships":0},"BRN":{"owner":1,"troops":2,"nuked":0,"name":"Brunei","lat":4.669554408947038,"lon":84.64039864027329,"gdp":14,"mil":5,"pop":0.5,"income":4,"infrastructure":3,"airwings":0,"ships":0},"MLI":{"owner":0,"troops":66,"nuked":0,"name":"Mali","lat":13.346418906540563,"lon":-33.34451731756512,"gdp":20,"mil":5,"pop":22,"income":4,"infrastructure":3,"airwings":0,"ships":0,"instabilityLevel":25},"RUS":{"owner":1,"troops":7,"nuked":0,"name":"Russia","lat":51.38480984692568,"lon":67.34429171074103,"gdp":2240,"mil":90,"pop":144,"income":10,"infrastructure":3,"airwings":0,"ships":0},"LCA":{"owner":0,"troops":83,"nuked":0,"name":"Saint Lucia","lat":13.807459315854857,"lon":-90.9260058946264,"gdp":5,"mil":2,"pop":1,"income":2,"infrastructure":3,"airwings":0,"ships":0},"THA":{"owner":1,"troops":4,"nuked":0,"name":"Thailand","lat":8.377846251642364,"lon":69.16788901464487,"gdp":500,"mil":22,"pop":72,"income":8,"infrastructure":3,"airwings":0,"ships":0},"NIC":{"owner":0,"troops":64,"nuked":0,"name":"Nicaragua","lat":11.876434744817304,"lon":-115.58361337624454,"gdp":16,"mil":3,"pop":7,"income":4,"infrastructure":3,"airwings":0,"ships":0,"instabilityLevel":100},"FRA":{"owner":1,"troops":8,"nuked":0,"name":"France","lat":47.43159643675094,"lon":-32.17214401068509,"gdp":3000,"mil":62,"pop":68,"income":10,"infrastructure":3,"airwings":0,"ships":0},"AZE":{"owner":1,"troops":3,"nuked":0,"name":"Azerbaijan","lat":40.57576178742605,"lon":19.621782669219144,"gdp":95,"mil":16,"pop":10,"income":6,"infrastructure":3,"airwings":0,"ships":0},"TCA":{"owner":1,"troops":1,"nuked":0,"name":"Turks and Caicos Is.","lat":21.79613312063549,"lon":-101.80082182269855,"gdp":5,"mil":2,"pop":1,"income":2,"infrastructure":3,"airwings":0,"ships":0},"DJI":{"owner":1,"troops":3,"nuked":0,"name":"Djibouti","lat":12.360982556989333,"lon":13.188831730443994,"gdp":4,"mil":4,"pop":1,"income":2,"infrastructure":3,"airwings":0,"ships":0,"instabilityLevel":75},"SEN":{"owner":1,"troops":2,"nuked":0,"name":"Senegal","lat":13.73171988174794,"lon":-43.32443126624374,"gdp":28,"mil":4,"pop":17,"income":4,"infrastructure":3,"airwings":0,"ships":0},"BHS":{"owner":0,"troops":63,"nuked":0,"name":"Bahamas","lat":24.117912830553642,"lon":-107.69398897741198,"gdp":5,"mil":2,"pop":1,"income":2,"infrastructure":3,"airwings":0,"ships":0,"instabilityLevel":25},"SDN":{"owner":1,"troops":3,"nuked":0,"name":"Sudan","lat":13.971562858087418,"lon":0.1194440336163828,"gdp":35,"mil":14,"pop":46,"income":5,"infrastructure":3,"airwings":0,"ships":0},"GGY":{"owner":0,"troops":27,"nuked":0,"name":"Guernsey","lat":49.47334347230904,"lon":-32.52856618038233,"gdp":5,"mil":2,"pop":1,"income":2,"infrastructure":3,"airwings":0,"ships":0,"instabilityLevel":25},"OMN":{"owner":1,"troops":4,"nuked":0,"name":"Oman","lat":22.991470351024983,"lon":28.630963364471594,"gdp":88,"mil":18,"pop":5,"income":6,"infrastructure":3,"airwings":0,"ships":0},"COG":{"owner":0,"troops":76,"nuked":0,"name":"Congo","lat":-3.543515921731185,"lon":-17.36824731417573,"gdp":14,"mil":2,"pop":6,"income":4,"infrastructure":3,"airwings":0,"ships":0},"ATG":{"owner":1,"troops":1,"nuked":0,"name":"Antigua and Barb.","lat":17.079021387494777,"lon":-91.81114979646728,"gdp":5,"mil":2,"pop":1,"income":2,"infrastructure":3,"airwings":0,"ships":0},"KAS":{"owner":1,"troops":3,"nuked":0,"name":"Siachen Glacier","lat":35.36821667855151,"lon":47.01623373018487,"gdp":5,"mil":2,"pop":1,"income":2,"infrastructure":3,"airwings":0,"ships":0},"SLV":{"owner":1,"troops":2,"nuked":0,"name":"El Salvador","lat":14.234767669791829,"lon":-119.34015859715892,"gdp":34,"mil":4,"pop":6,"income":5,"infrastructure":3,"airwings":0,"ships":0},"HTI":{"owner":0,"troops":75,"nuked":0,"name":"Haiti","lat":19.338175567325525,"lon":-102.09429710683523,"gdp":5,"mil":2,"pop":1,"income":2,"infrastructure":3,"airwings":0,"ships":0,"instabilityLevel":100},"GHA":{"owner":1,"troops":2,"nuked":0,"name":"Ghana","lat":5.3106059441873,"lon":-32.74543627368546,"gdp":76,"mil":6,"pop":33,"income":6,"infrastructure":3,"airwings":0,"ships":0},"TUN":{"owner":0,"troops":68,"nuked":0,"name":"Tunisia","lat":36.93319148092704,"lon":-19.819989007395016,"gdp":47,"mil":10,"pop":12,"income":5,"infrastructure":3,"airwings":0,"ships":0,"instabilityLevel":25},"CUB":{"owner":1,"troops":3,"nuked":0,"name":"Cuba","lat":22.15013870717848,"lon":-109.13825481752488,"gdp":100,"mil":14,"pop":11,"income":6,"infrastructure":3,"airwings":0,"ships":0},"SWZ":{"owner":0,"troops":72,"nuked":0,"name":"Swaziland","lat":-26.125435397987214,"lon":1.3074097035411771,"gdp":4,"mil":1,"pop":1.2,"income":2,"infrastructure":3,"airwings":0,"ships":0},"IOT":{"owner":1,"troops":1,"nuked":0,"name":"Br. Indian Ocean Ter.","lat":-7.3214499080882405,"lon":42.44874770220589,"gdp":5,"mil":2,"pop":1,"income":2,"infrastructure":3,"airwings":0,"ships":0},"IRL":{"owner":0,"troops":80,"nuked":0,"name":"Ireland","lat":53.720367043224925,"lon":-39.219114321657244,"gdp":5,"mil":2,"pop":1,"income":2,"infrastructure":3,"airwings":0,"ships":0},"CUW":{"owner":1,"troops":1,"nuked":0,"name":"Curaçao","lat":12.10799682131855,"lon":-98.81299922134464,"gdp":5,"mil":2,"pop":1,"income":2,"infrastructure":3,"airwings":0,"ships":0},"ASM":{"owner":0,"troops":78,"nuked":0,"name":"American Samoa","lat":-14.302091575828888,"lon":159.24622200841497,"gdp":5,"mil":2,"pop":1,"income":2,"infrastructure":3,"airwings":0,"ships":0},"IRQ":{"owner":1,"troops":5,"nuked":0,"name":"Iraq","lat":33.789979965799354,"lon":14.58861235917383,"gdp":268,"mil":30,"pop":42,"income":7,"infrastructure":3,"airwings":0,"ships":0},"TCD":{"owner":0,"troops":74,"nuked":0,"name":"Chad","lat":15.498169235535297,"lon":-14.55454310564187,"gdp":12,"mil":5,"pop":17,"income":3,"infrastructure":3,"airwings":0,"ships":0,"instabilityLevel":100},"KEN":{"owner":1,"troops":2,"nuked":0,"name":"Kenya","lat":2.1196834070545254,"lon":6.2090718003184655,"gdp":110,"mil":8,"pop":56,"income":6,"infrastructure":3,"airwings":0,"ships":0},"MHL":{"owner":0,"troops":67,"nuked":0,"name":"Marshall Is.","lat":7.696641016047759,"lon":139.62755486505685,"gdp":5,"mil":2,"pop":1,"income":2,"infrastructure":3,"airwings":0,"ships":0,"instabilityLevel":25},"UZB":{"owner":1,"troops":3,"nuked":0,"name":"Uzbekistan","lat":39.79179887328519,"lon":34.96132220424236,"gdp":80,"mil":14,"pop":36,"income":6,"infrastructure":3,"airwings":0,"ships":0},"SMR":{"owner":0,"troops":65,"nuked":0,"name":"San Marino","lat":43.93666294642856,"lon":-17.535253906249988,"gdp":5,"mil":2,"pop":1,"income":2,"infrastructure":3,"airwings":0,"ships":0,"instabilityLevel":25},"ZAF":{"owner":1,"troops":5,"nuked":0,"name":"South Africa","lat":-27.289965474217304,"lon":-6.336801556808187,"gdp":419,"mil":28,"pop":60,"income":8,"infrastructure":3,"airwings":0,"ships":0},"WLF":{"owner":0,"troops":69,"nuked":0,"name":"Wallis and Futuna Is.","lat":-13.789682539682538,"lon":152.8619342137897,"gdp":5,"mil":2,"pop":1,"income":2,"infrastructure":3,"airwings":0,"ships":0,"instabilityLevel":25},"IOA":{"owner":1,"troops":1,"nuked":0,"name":"Indian Ocean Ter.","lat":-11.612366303943453,"lon":69.80628513558206,"gdp":5,"mil":2,"pop":1,"income":2,"infrastructure":3,"airwings":0,"ships":0},"VUT":{"owner":0,"troops":78,"nuked":0,"name":"Vanuatu","lat":-15.986373651390899,"lon":137.3177783321229,"gdp":1,"mil":0,"pop":0.3,"income":1,"infrastructure":3,"airwings":0,"ships":0,"instabilityLevel":25},"BRB":{"owner":1,"troops":1,"nuked":0,"name":"Barbados","lat":13.281170761321759,"lon":-89.6045506760049,"gdp":5,"mil":2,"pop":1,"income":2,"infrastructure":3,"airwings":0,"ships":0},"SLB":{"owner":0,"troops":73,"nuked":0,"name":"Solomon Is.","lat":-11.772686928211565,"lon":130.41209123542836,"gdp":1.5,"mil":0,"pop":0.7,"income":1,"infrastructure":3,"airwings":0,"ships":0},"UKR":{"owner":1,"troops":7,"nuked":0,"name":"Ukraine","lat":51.410638949065586,"lon":-3.689797206105272,"gdp":200,"mil":46,"pop":44,"income":7,"infrastructure":3,"airwings":0,"ships":0},"TGO":{"owner":1,"troops":3,"nuked":0,"name":"Togo","lat":10.861493524369422,"lon":-29.85653790006748,"gdp":8,"mil":2,"pop":8,"income":3,"infrastructure":3,"airwings":0,"ships":0},"TON":{"owner":-1,"troops":1,"nuked":0,"name":"Tonga","lat":-20.376126708984376,"lon":155.2904632200521,"gdp":0.5,"mil":0,"pop":0.1,"income":1,"infrastructure":3,"airwings":0,"ships":0},"FIN":{"owner":-1,"troops":2,"nuked":0,"name":"Finland","lat":61.475783599150155,"lon":-0.6605161671013864,"gdp":300,"mil":20,"pop":6,"income":7,"infrastructure":3,"airwings":0,"ships":0},"SOM":{"owner":-1,"troops":1,"nuked":0,"name":"Somalia","lat":1.3518316275757454,"lon":13.839095229457637,"gdp":7,"mil":5,"pop":18,"income":3,"infrastructure":3,"airwings":0,"ships":0},"ESP":{"owner":-1,"troops":3,"nuked":0,"name":"Spain","lat":38.01999608674118,"lon":-32.271732772862215,"gdp":1500,"mil":40,"pop":47,"income":10,"infrastructure":3,"airwings":0,"ships":0},"HND":{"owner":-1,"troops":1,"nuked":0,"name":"Honduras","lat":14.221853116502544,"lon":-117.23252033320469,"gdp":28,"mil":4,"pop":10,"income":4,"infrastructure":3,"airwings":0,"ships":0},"BGD":{"owner":-1,"troops":2,"nuked":0,"name":"Bangladesh","lat":23.01435252744143,"lon":61.20093872644514,"gdp":460,"mil":22,"pop":170,"income":8,"infrastructure":3,"airwings":0,"ships":0},"FJI":{"owner":-1,"troops":1,"nuked":0,"name":"Fiji","lat":-18.22879240394842,"lon":148.05543770343522,"gdp":4,"mil":1,"pop":0.9,"income":2,"infrastructure":3,"airwings":0,"ships":0},"SVN":{"owner":-1,"troops":1,"nuked":0,"name":"Slovenia","lat":45.98556785108402,"lon":-16.4288643820074,"gdp":66,"mil":8,"pop":2,"income":5,"infrastructure":3,"airwings":0,"ships":0},"EST":{"owner":-1,"troops":1,"nuked":0,"name":"Estonia","lat":58.70501272864253,"lon":-5.30813236017456,"gdp":38,"mil":10,"pop":1,"income":5,"infrastructure":3,"airwings":0,"ships":0},"DNK":{"owner":-1,"troops":2,"nuked":0,"name":"Denmark","lat":54.9871407214735,"lon":-21.027807859007943,"gdp":390,"mil":18,"pop":6,"income":8,"infrastructure":3,"airwings":0,"ships":0},"SLE":{"owner":-1,"troops":1,"nuked":0,"name":"Sierra Leone","lat":8.08490385910561,"lon":-42.24724066628498,"gdp":4,"mil":1,"pop":8,"income":2,"infrastructure":3,"airwings":0,"ships":0},"BIH":{"owner":-1,"troops":1,"nuked":0,"name":"Bosnia and Herz.","lat":44.070414804152406,"lon":-11.879515598244831,"gdp":24,"mil":6,"pop":3,"income":4,"infrastructure":3,"airwings":0,"ships":0},"DEU":{"owner":-1,"troops":4,"nuked":0,"name":"Germany","lat":53.67076262624862,"lon":-21.42111939196957,"gdp":4400,"mil":60,"pop":84,"income":11,"infrastructure":3,"airwings":0,"ships":0},"COD":{"owner":-1,"troops":1,"nuked":0,"name":"Dem. Rep. Congo","lat":-8.798042492740962,"lon":-5.479695850463205,"gdp":60,"mil":10,"pop":100,"income":5,"infrastructure":3,"airwings":0,"ships":0},"IND":{"owner":-1,"troops":5,"nuked":0,"name":"India","lat":23.85547292744607,"lon":58.418587410022596,"gdp":3700,"mil":80,"pop":1428,"income":11,"infrastructure":3,"airwings":0,"ships":0},"VAT":{"owner":-1,"troops":1,"nuked":0,"name":"Vatican","lat":41.90210164632901,"lon":-17.571100737110083,"gdp":5,"mil":2,"pop":1,"income":2,"infrastructure":3,"airwings":0,"ships":0},"GIN":{"owner":-1,"troops":1,"nuked":0,"name":"Guinea","lat":11.442932583710112,"lon":-39.067207583591994,"gdp":20,"mil":4,"pop":13,"income":4,"infrastructure":3,"airwings":0,"ships":0},"KOS":{"owner":-1,"troops":1,"nuked":0,"name":"Kosovo","lat":42.45345364634262,"lon":-8.400197742936106,"gdp":5,"mil":2,"pop":1,"income":2,"infrastructure":3,"airwings":0,"ships":0},"BEL":{"owner":-1,"troops":2,"nuked":0,"name":"Belgium","lat":50.69874698467677,"lon":-25.11030059234684,"gdp":580,"mil":22,"pop":12,"income":8,"infrastructure":3,"airwings":0,"ships":0},"SDS":{"owner":-1,"troops":1,"nuked":0,"name":"S. Sudan","lat":8.911886154161273,"lon":0.18932111121903272,"gdp":5,"mil":2,"pop":1,"income":2,"infrastructure":3,"airwings":0,"ships":0},"AND":{"owner":-1,"troops":1,"nuked":0,"name":"Andorra","lat":42.466181574757705,"lon":-28.51250145788551,"gdp":5,"mil":2,"pop":1,"income":2,"infrastructure":3,"airwings":0,"ships":0},"AUT":{"owner":-1,"troops":1,"nuked":0,"name":"Austria","lat":47.726944566889756,"lon":-14.567624667611742,"gdp":515,"mil":16,"pop":9,"income":8,"infrastructure":3,"airwings":0,"ships":0},"COL":{"owner":-1,"troops":2,"nuked":0,"name":"Colombia","lat":5.491030146656984,"lon":-101.3101404374061,"gdp":363,"mil":26,"pop":52,"income":8,"infrastructure":3,"airwings":0,"ships":0},"ATC":{"owner":-1,"troops":1,"nuked":0,"name":"Ashmore and Cartier Is.","lat":-12.428761501104605,"lon":93.59042781387784,"gdp":5,"mil":2,"pop":1,"income":2,"infrastructure":3,"airwings":0,"ships":0},"ZMB":{"owner":-1,"troops":1,"nuked":0,"name":"Zambia","lat":-12.445999832964905,"lon":-4.4114346299400555,"gdp":22,"mil":3,"pop":19,"income":4,"infrastructure":3,"airwings":0,"ships":0},"BFA":{"owner":-1,"troops":1,"nuked":0,"name":"Burkina Faso","lat":12.368804474649595,"lon":-33.83829216594334,"gdp":19,"mil":4,"pop":22,"income":4,"infrastructure":3,"airwings":0,"ships":0},"VIR":{"owner":-1,"troops":1,"nuked":0,"name":"U.S. Virgin Is.","lat":17.763450257607097,"lon":-94.87341465178014,"gdp":5,"mil":2,"pop":1,"income":2,"infrastructure":3,"airwings":0,"ships":0},"FSM":{"owner":-1,"troops":1,"nuked":0,"name":"Micronesia","lat":7.302360586787356,"lon":122.56561175152974,"gdp":5,"mil":2,"pop":1,"income":2,"infrastructure":3,"airwings":0,"ships":0},"TWN":{"owner":-1,"troops":3,"nuked":0,"name":"Taiwan","lat":23.73290502871745,"lon":91.22506489875872,"gdp":760,"mil":44,"pop":24,"income":9,"infrastructure":3,"airwings":0,"ships":0},"YEM":{"owner":-1,"troops":1,"nuked":0,"name":"Yemen","lat":14.295781767821762,"lon":18.853409735908528,"gdp":20,"mil":8,"pop":34,"income":4,"infrastructure":3,"airwings":0,"ships":0},"HKG":{"owner":-1,"troops":1,"nuked":0,"name":"Hong Kong","lat":22.409899402655807,"lon":84.30892711595367,"gdp":360,"mil":5,"pop":7,"income":8,"infrastructure":3,"airwings":0,"ships":0},"GMB":{"owner":-1,"troops":1,"nuked":0,"name":"Gambia","lat":13.517307800035546,"lon":-46.3391377749867,"gdp":2,"mil":1,"pop":2.6,"income":1,"infrastructure":3,"airwings":0,"ships":0},"GRD":{"owner":-1,"troops":1,"nuked":0,"name":"Grenada","lat":12.10190930500913,"lon":-91.7402875945194,"gdp":5,"mil":2,"pop":1,"income":2,"infrastructure":3,"airwings":0,"ships":0},"CHE":{"owner":-1,"troops":2,"nuked":0,"name":"Switzerland","lat":47.59053969839605,"lon":-22.382364585291057,"gdp":800,"mil":18,"pop":9,"income":9,"infrastructure":3,"airwings":0,"ships":0},"MWI":{"owner":-1,"troops":1,"nuked":0,"name":"Malawi","lat":-16.043686819401184,"lon":4.826527239927472,"gdp":12,"mil":2,"pop":20,"income":3,"infrastructure":3,"airwings":0,"ships":0},"KAZ":{"owner":-1,"troops":2,"nuked":0,"name":"Kazakhstan","lat":45.847757292770034,"lon":24.803965072921958,"gdp":220,"mil":18,"pop":19,"income":7,"infrastructure":3,"airwings":0,"ships":0}},"players":[{"name":"COMMANDER","index":0,"color":{"hex":"#00dcff","int":56575,"name":"HUMANITY"},"nukes":2,"alive":true,"troops":103,"budget":49079},{"name":"RAINCLOUD","index":1,"color":{"hex":"#ff3232","int":16724530,"name":"RAINCLOUD AI"},"nukes":2,"alive":true,"troops":102,"budget":26748}],"turn":0,"turnCount":228,"phase":"REINFORCE","reinforceLeft":16,"AI_STATE":{"techLevel":46,"intelligenceLevel":46,"aggressionLevel":1,"adaptabilityScore":38,"energy":80,"threatTier":3},"globalMetrics":{"powerGrid":0,"comms":100,"economy":0,"airTrafficDisabledTurns":0,"satelliteDisruptedTurns":2,"commJamTurns":0,"userAttacks":0,"userDamage":0}}