[{"name":"Ajegroup","city":"Peru","lat":-11.9117,"lon":-77.0299},{"name":"Grupo Boticario","city":"Brazil","lat":-23.4704,"lon":-46.5861},{"name":"Natura &Co LatAm Division","city":"Brazil","lat":-23.6353,"lon":-46.591},{"name":"PetroRio","city":"Brazil","lat":-23.6504,"lon":-46.5159},{"name":"Totvs","city":"Brazil","lat":-23.6224,"lon":-46.5348},{"name":"Magazine Luiza","city":"Brazil","lat":-23.5564,"lon":-46.7111},{"name":"Rappi","city":"Colombia","lat":4.5738,"lon":-73.9745},{"name":"Grupo Nutresa","city":"Colombia","lat":4.7101,"lon":-74.0292},{"name":"Bancolombia Tech Unit","city":"Colombia","lat":4.809,"lon":-74.0102},{"name":"Falabella Retail","city":"Chile","lat":-33.4904,"lon":-70.6315},{"name":"Cencosud Tech","city":"Chile","lat":-33.5963,"lon":-70.5225},{"name":"LATAM Cargo","city":"Chile","lat":-33.4839,"lon":-70.8},{"name":"Grupo Sura","city":"Colombia","lat":4.7884,"lon":-74.0208},{"name":"Grupo Argos","city":"Colombia","lat":4.8025,"lon":-74.15},{"name":"Arcor","city":"Argentina","lat":-34.722,"lon":-58.4143},{"name":"MercadoLibre Logistics","city":"Argentina","lat":-34.5684,"lon":-58.3307},{"name":"Despegar","city":"Argentina","lat":-34.7039,"lon":-58.2705},{"name":"YPF Luz","city":"Argentina","lat":-34.5625,"lon":-58.2751},{"name":"Globant","city":"Argentina","lat":-34.4796,"lon":-58.2322},{"name":"Banco Macro Tech","city":"Argentina","lat":-34.4846,"lon":-58.4016},{"name":"Olist","city":"Brazil","lat":-23.6167,"lon":-46.7306},{"name":"StoneCo","city":"Brazil","lat":-23.6996,"lon":-46.7432},{"name":"QuintoAndar","city":"Brazil","lat":-23.4772,"lon":-46.7498},{"name":"VTEX","city":"Brazil","lat":-23.4488,"lon":-46.5552},{"name":"Kavak","city":"Mexico","lat":19.333,"lon":-99.2734},{"name":"Clip","city":"Mexico","lat":19.581,"lon":-99.1319},{"name":"Konfio","city":"Mexico","lat":19.5526,"lon":-99.1051},{"name":"R2","city":"Mexico","lat":19.3549,"lon":-99.1801},{"name":"Bitso","city":"Mexico","lat":19.5565,"lon":-99.0914},{"name":"Justo","city":"Mexico","lat":19.3977,"lon":-99.2012},{"name":"Softtek","city":"Mexico","lat":19.3986,"lon":-99.1925},{"name":"Kueski","city":"Mexico","lat":19.5356,"lon":-99.1377},{"name":"Creditas","city":"Brazil","lat":-23.5452,"lon":-46.6733},{"name":"Wildlife Studios","city":"Brazil","lat":-23.6413,"lon":-46.5741},{"name":"Nubank LatAm Unit","city":"Brazil","lat":-23.5523,"lon":-46.7406},{"name":"99 Tecnologia","city":"Brazil","lat":-23.6396,"lon":-46.7555},{"name":"Loggi","city":"Brazil","lat":-23.505,"lon":-46.5805},{"name":"Gympass","city":"Brazil","lat":-23.4259,"lon":-46.6983},{"name":"Sinqia","city":"Brazil","lat":-23.6353,"lon":-46.7695},{"name":"PagSeguro","city":"Brazil","lat":-23.6576,"lon":-46.7584},{"name":"Yoco","city":"South Africa","lat":-26.2869,"lon":28.0974},{"name":"Takealot","city":"South Africa","lat":-26.2776,"lon":27.935},{"name":"SweepSouth","city":"South Africa","lat":-26.3111,"lon":28.0323},{"name":"Aerobotics","city":"South Africa","lat":-26.0882,"lon":28.0992},{"name":"Paystack","city":"Nigeria","lat":6.633,"lon":3.2586},{"name":"Flutterwave","city":"Nigeria","lat":6.5198,"lon":3.3744},{"name":"Interswitch","city":"Nigeria","lat":6.4499,"lon":3.2987},{"name":"Andela","city":"Nigeria","lat":6.4696,"lon":3.5092},{"name":"Kobo360","city":"Nigeria","lat":6.6002,"lon":3.3338},{"name":"Twiga Foods","city":"Kenya","lat":-1.3388,"lon":36.8399},{"name":"Sendy","city":"Kenya","lat":-1.3611,"lon":36.9553},{"name":"Cellulant","city":"Kenya","lat":-1.1752,"lon":36.9012},{"name":"Selina Wamucii","city":"Kenya","lat":-1.3783,"lon":36.8554},{"name":"Wasoko","city":"Kenya","lat":-1.3205,"lon":36.8909},{"name":"Chipper Cash","city":"Uganda","lat":0.4818,"lon":32.5204},{"name":"SafeBoda","city":"Uganda","lat":0.3482,"lon":32.6461},{"name":"Jumia Logistics","city":"Egypt","lat":29.9868,"lon":31.1758},{"name":"Swvl","city":"Egypt","lat":30.1861,"lon":31.1228},{"name":"Fawry","city":"Egypt","lat":30.0698,"lon":31.3644},{"name":"MaxAB","city":"Egypt","lat":30.0961,"lon":31.2555},{"name":"MNT-Halan","city":"Egypt","lat":30.1729,"lon":31.2255},{"name":"Yassir","city":"Algeria","lat":36.6643,"lon":3.0247},{"name":"Inwi Tech","city":"Morocco","lat":33.6567,"lon":-7.7334},{"name":"HPS","city":"Morocco","lat":33.5653,"lon":-7.6359},{"name":"Chari","city":"Morocco","lat":33.6712,"lon":-7.7261},{"name":"Gozem","city":"Togo","lat":6.2637,"lon":1.3462},{"name":"Wave","city":"Senegal","lat":14.567,"lon":-17.3867},{"name":"TradeDepot","city":"Nigeria","lat":6.4861,"lon":3.3199},{"name":"Moove","city":"Nigeria","lat":6.503,"lon":3.2797},{"name":"Alerzo","city":"Nigeria","lat":6.5745,"lon":3.4869},{"name":"OnePipe","city":"Nigeria","lat":6.6056,"lon":3.4379},{"name":"TymeBank","city":"South Africa","lat":-26.2855,"lon":28.0864},{"name":"Rain","city":"South Africa","lat":-26.34,"lon":27.8982},{"name":"Luno","city":"South Africa","lat":-26.1241,"lon":27.9668},{"name":"Jumo","city":"South Africa","lat":-26.3524,"lon":28.137},{"name":"MeTL Group","city":"Tanzania","lat":-6.8936,"lon":39.2566},{"name":"Bakhresa Group","city":"Tanzania","lat":-6.9314,"lon":39.3495},{"name":"Dangote Sugar","city":"Nigeria","lat":6.4295,"lon":3.3981},{"name":"Olam Nigeria","city":"Nigeria","lat":6.4505,"lon":3.4556},{"name":"Seplat Energy","city":"Nigeria","lat":6.536,"lon":3.2436},{"name":"Kuda Bank","city":"Nigeria","lat":6.6515,"lon":3.407},{"name":"Zenvus","city":"Nigeria","lat":6.464,"lon":3.498},{"name":"Zola Electric","city":"Tanzania","lat":-6.7655,"lon":39.0811},{"name":"M-Kopa","city":"Kenya","lat":-1.435,"lon":36.9436},{"name":"SolarNow","city":"Uganda","lat":0.2191,"lon":32.5568},{"name":"Grab Holdings","city":"Singapore","lat":1.2503,"lon":103.7359},{"name":"Sea Group","city":"Singapore","lat":1.4049,"lon":103.7808},{"name":"Razer","city":"Singapore","lat":1.2502,"lon":103.6765},{"name":"Trax","city":"Singapore","lat":1.4536,"lon":103.8187},{"name":"Ninja Van","city":"Singapore","lat":1.3516,"lon":103.8458},{"name":"Carousell","city":"Singapore","lat":1.2648,"lon":103.9267},{"name":"PatSnap","city":"Singapore","lat":1.396,"lon":103.9226},{"name":"Zilingo","city":"Singapore","lat":1.3953,"lon":103.9453},{"name":"ShopBack","city":"Singapore","lat":1.2688,"lon":103.9251},{"name":"PropertyGuru","city":"Singapore","lat":1.3761,"lon":103.7458},{"name":"GoTo Group","city":"Indonesia","lat":-6.2861,"lon":106.7437},{"name":"Traveloka","city":"Indonesia","lat":-6.1539,"lon":106.7615},{"name":"Bukalapak","city":"Indonesia","lat":-6.1324,"lon":106.902},{"name":"Ruangguru","city":"Indonesia","lat":-6.3495,"lon":106.8796},{"name":"Kopi Kenangan","city":"Indonesia","lat":-6.1999,"lon":106.9786},{"name":"Xendit","city":"Indonesia","lat":-6.1623,"lon":106.9709},{"name":"Akulaku","city":"Indonesia","lat":-6.1807,"lon":106.9181},{"name":"Halodoc","city":"Indonesia","lat":-6.0637,"lon":106.8544},{"name":"Alodokter","city":"Indonesia","lat":-6.2663,"lon":106.9953},{"name":"Kredivo","city":"Indonesia","lat":-6.261,"lon":106.8219},{"name":"Carsome","city":"Malaysia","lat":3.2596,"lon":101.666},{"name":"Aerodyne Group","city":"Malaysia","lat":3.0882,"lon":101.8325},{"name":"StoreHub","city":"Malaysia","lat":3.0245,"lon":101.7454},{"name":"iPrice Group","city":"Malaysia","lat":3.1054,"lon":101.6088},{"name":"PolicyStreet","city":"Malaysia","lat":3.1069,"lon":101.6228},{"name":"BigPay","city":"Malaysia","lat":3.2215,"lon":101.5865},{"name":"Cars24 Asia","city":"Malaysia","lat":3.2688,"lon":101.7547},{"name":"Boost","city":"Malaysia","lat":3.1459,"lon":101.7768},{"name":"Teleme","city":"Mongolia","lat":47.8183,"lon":106.8512},{"name":"Unitel Laos","city":"Laos","lat":17.9336,"lon":102.5073},{"name":"VNPay","city":"Vietnam","lat":10.6846,"lon":106.6045},{"name":"MoMo","city":"Vietnam","lat":10.7602,"lon":106.6445},{"name":"Tiki","city":"Vietnam","lat":10.8442,"lon":106.6171},{"name":"VNG","city":"Vietnam","lat":10.7629,"lon":106.7237},{"name":"Sky Mavis","city":"Vietnam","lat":10.7651,"lon":106.5182},{"name":"Base.vn","city":"Vietnam","lat":10.882,"lon":106.5509},{"name":"Haravan","city":"Vietnam","lat":10.7557,"lon":106.6507},{"name":"Sendo","city":"Vietnam","lat":10.8122,"lon":106.6311},{"name":"Abivin","city":"Vietnam","lat":10.7177,"lon":106.5881},{"name":"Lendbox","city":"India","lat":28.6374,"lon":77.1167},{"name":"Zerodha","city":"India","lat":28.5726,"lon":77.3071},{"name":"Freshworks","city":"India","lat":28.7119,"lon":77.1498},{"name":"Udaan","city":"India","lat":28.621,"lon":77.1932},{"name":"Razorpay","city":"India","lat":28.5235,"lon":77.146},{"name":"CRED","city":"India","lat":28.4646,"lon":77.3196},{"name":"Meesho","city":"India","lat":28.7229,"lon":77.1195},{"name":"Unacademy","city":"India","lat":28.4853,"lon":77.1352},{"name":"Byju\u2019s India Ops","city":"India","lat":28.7599,"lon":77.3261},{"name":"Delhivery","city":"India","lat":28.5749,"lon":77.3326},{"name":"OYO India Unit","city":"India","lat":28.4851,"lon":77.2632},{"name":"PhonePe","city":"India","lat":28.6665,"lon":77.2077},{"name":"Swiggy","city":"India","lat":28.6131,"lon":77.1118},{"name":"Zomato Hyperpure","city":"India","lat":28.6753,"lon":77.2018},{"name":"Nykaa Beauty","city":"India","lat":28.5097,"lon":77.0906},{"name":"Urban Company","city":"India","lat":28.4995,"lon":77.1269},{"name":"ShareChat","city":"India","lat":28.5499,"lon":77.3294},{"name":"DailyHunt","city":"India","lat":28.7447,"lon":77.065},{"name":"PolicyBazaar","city":"India","lat":28.7073,"lon":77.172},{"name":"Lenskart","city":"India","lat":28.7587,"lon":77.2324},{"name":"Daraz","city":"Pakistan","lat":24.7296,"lon":67.1389},{"name":"Bykea","city":"Pakistan","lat":24.9073,"lon":66.928},{"name":"Bazaar Technologies","city":"Pakistan","lat":24.7704,"lon":66.857},{"name":"Finja","city":"Pakistan","lat":24.8381,"lon":66.9417},{"name":"Truck It In","city":"Pakistan","lat":24.8676,"lon":67.0606},{"name":"Careem","city":"UAE","lat":25.1489,"lon":55.379},{"name":"Kitopi","city":"UAE","lat":25.1799,"lon":55.4033},{"name":"Property Finder","city":"UAE","lat":25.1884,"lon":55.1898},{"name":"Fetchr","city":"UAE","lat":25.2757,"lon":55.2798},{"name":"Tabby","city":"UAE","lat":25.1378,"lon":55.2246},{"name":"Yalla Group","city":"UAE","lat":25.2673,"lon":55.41},{"name":"Anghami","city":"UAE","lat":25.1792,"lon":55.4062},{"name":"Network International","city":"UAE","lat":25.1254,"lon":55.2072},{"name":"Group42","city":"UAE","lat":25.3339,"lon":55.4188},{"name":"Bayzat","city":"UAE","lat":25.2056,"lon":55.4107},{"name":"STC Pay","city":"Saudi Arabia","lat":24.8091,"lon":46.8026},{"name":"Jahez","city":"Saudi Arabia","lat":24.6143,"lon":46.5639},{"name":"Foodics","city":"Saudi Arabia","lat":24.6454,"lon":46.5457},{"name":"Tamara","city":"Saudi Arabia","lat":24.6659,"lon":46.7888},{"name":"Sary","city":"Saudi Arabia","lat":24.753,"lon":46.8084},{"name":"Unifonic","city":"Saudi Arabia","lat":24.6077,"lon":46.6394},{"name":"Halan","city":"Saudi Arabia","lat":24.6694,"lon":46.6218},{"name":"HungerStation","city":"Saudi Arabia","lat":24.6714,"lon":46.6517},{"name":"Elm Company","city":"Saudi Arabia","lat":24.628,"lon":46.7057},{"name":"Rasan","city":"Saudi Arabia","lat":24.6889,"lon":46.535},{"name":"Trendyol","city":"Turkey","lat":40.9684,"lon":28.8385},{"name":"Hepsiburada","city":"Turkey","lat":40.9277,"lon":29.1243},{"name":"Getir","city":"Turkey","lat":40.8664,"lon":29.0449},{"name":"Peak Games","city":"Turkey","lat":41.1127,"lon":28.9581},{"name":"Insider","city":"Turkey","lat":40.9898,"lon":28.9502},{"name":"Dream Games","city":"Turkey","lat":41.1196,"lon":28.9505},{"name":"Marti","city":"Turkey","lat":41.0736,"lon":28.9435},{"name":"Papara","city":"Turkey","lat":41.1278,"lon":29.1224},{"name":"Para\u015f\u00fct","city":"Turkey","lat":40.9298,"lon":29.0327},{"name":"Modanisa","city":"Turkey","lat":40.8723,"lon":29.1268},{"name":"Canva","city":"Australia","lat":-33.7233,"lon":151.1567},{"name":"Atlassian Asia Ops","city":"Australia","lat":-33.8326,"lon":151.3155},{"name":"Afterpay","city":"Australia","lat":-33.8048,"lon":151.2165},{"name":"SafetyCulture","city":"Australia","lat":-33.9659,"lon":151.1661},{"name":"Envato","city":"Australia","lat":-33.8722,"lon":151.3081},{"name":"SiteMinder","city":"Australia","lat":-33.759,"lon":151.3193},{"name":"Culture Amp","city":"Australia","lat":-33.8212,"lon":151.3576},{"name":"Airtasker","city":"Australia","lat":-33.7723,"lon":151.2964},{"name":"Deputy","city":"Australia","lat":-33.9446,"lon":151.1696},{"name":"Campaign Monitor","city":"Australia","lat":-33.8085,"lon":151.2497},{"name":"Xero Asia-Pacific","city":"New Zealand","lat":-36.9173,"lon":174.6716},{"name":"Rocket Lab","city":"New Zealand","lat":-36.7644,"lon":174.8827},{"name":"TradeMe","city":"NZ","lat":-36.8712,"lon":174.6894},{"name":"Vend POS","city":"New Zealand","lat":-36.7641,"lon":174.7008},{"name":"Pushpay","city":"New Zealand","lat":-36.9121,"lon":174.8695}]
