[{"name":"Gazprom","city":"Russia","lat":55.7558,"lon":37.6173},{"name":"Sberbank","city":"Russia","lat":55.7333,"lon":37.5888},{"name":"Rosneft","city":"Russia","lat":55.75,"lon":37.6167},{"name":"Lukoil","city":"Russia","lat":55.76,"lon":37.62},{"name":"Norilsk Nickel","city":"Russia","lat":69.3333,"lon":88.2167},{"name":"Surgutneftegas","city":"Russia","lat":61.25,"lon":73.4167},{"name":"Novatek","city":"Russia","lat":64.9167,"lon":77.7833},{"name":"Transneft","city":"Russia","lat":55.76,"lon":37.6},{"name":"X5 Retail Group","city":"Russia","lat":55.75,"lon":37.61},{"name":"VTB Bank","city":"Russia","lat":59.9311,"lon":30.3609},{"name":"Rostec","city":"Russia","lat":55.7512,"lon":37.6184},{"name":"Tatneft","city":"Russia","lat":54.9,"lon":52.3},{"name":"Magnit","city":"Russia","lat":45.0393,"lon":38.9872},{"name":"Severstal","city":"Russia","lat":59.1333,"lon":37.9},{"name":"Evraz","city":"Russia","lat":55.75,"lon":37.55},{"name":"NLMK","city":"Russia","lat":52.6167,"lon":39.6},{"name":"Yandex","city":"Russia","lat":55.7335,"lon":37.5888},{"name":"VK","city":"Russia","lat":55.7963,"lon":37.5386},{"name":"Rosatom","city":"Russia","lat":55.7512,"lon":37.6184},{"name":"Alrosa","city":"Russia","lat":62.5333,"lon":113.9667},{"name":"Rusal","city":"Russia","lat":55.75,"lon":37.6167},{"name":"Mechel","city":"Russia","lat":55.75,"lon":37.6},{"name":"MMK","city":"Russia","lat":53.4167,"lon":59.0333},{"name":"PhosAgro","city":"Russia","lat":55.75,"lon":37.6},{"name":"Rosseti","city":"Russia","lat":55.75,"lon":37.6},{"name":"Inter RAO","city":"Russia","lat":55.75,"lon":37.6},{"name":"Aeroflot","city":"Russia","lat":55.9726,"lon":37.4126},{"name":"Sistema","city":"Russia","lat":55.75,"lon":37.61},{"name":"RusHydro","city":"Russia","lat":56.0153,"lon":92.8932},{"name":"Polymetal","city":"Russia","lat":59.9311,"lon":30.3609},{"name":"Polyus","city":"Russia","lat":55.75,"lon":37.6167},{"name":"Uralkali","city":"Russia","lat":59.4,"lon":56.8},{"name":"PIK Group","city":"Russia","lat":55.75,"lon":37.6},{"name":"M.video","city":"Russia","lat":55.75,"lon":37.6},{"name":"Tinkoff","city":"Russia","lat":55.75,"lon":37.6},{"name":"EuroChem","city":"Russia","lat":55.75,"lon":37.6},{"name":"Sibur","city":"Russia","lat":55.75,"lon":37.6},{"name":"SUEK","city":"Russia","lat":55.75,"lon":37.6},{"name":"AvtoVAZ","city":"Russia","lat":53.5,"lon":49.4167},{"name":"Kamaz","city":"Russia","lat":55.7333,"lon":52.3333},{"name":"UAC","city":"Russia","lat":55.75,"lon":37.6167},{"name":"KazMunayGas","city":"Kazakhstan","lat":51.1694,"lon":71.4491},{"name":"Tengizchevroil","city":"Kazakhstan","lat":47.1167,"lon":51.8833},{"name":"Kazatomprom","city":"Kazakhstan","lat":51.1694,"lon":71.4491},{"name":"Kaspi.kz","city":"Kazakhstan","lat":43.222,"lon":76.8512},{"name":"Eurasian Resources Group","city":"Kazakhstan","lat":51.1694,"lon":71.4491},{"name":"KAZ Minerals","city":"Kazakhstan","lat":43.222,"lon":76.8512},{"name":"Halyk Bank","city":"Kazakhstan","lat":43.222,"lon":76.8512},{"name":"KazTransOil","city":"Kazakhstan","lat":51.1694,"lon":71.4491},{"name":"Kazakhstan Temir Zholy","city":"Kazakhstan","lat":51.1694,"lon":71.4491}]
